{
    "calculo_temporal": [
        {
            "origen": "libanesa 14",
            "latitudorigen": -34.580997249999996,
            "longitudorigen": -60.954963500000005,
            "destino": "Escuela De Educaci\u00f3n Primaria N\u00ba16 \"General Manuel Belgrano\"",
            "direccion_destino": "Siria/Cabrera y Pres. Quintana 153, Jun\u00edn, Provincia de Buenos Aires",
            "latituddestino": -34.57978881713784,
            "longituddestino": -60.95158552608955,
            "distancia": 0.33718566615363127
        },
        {
            "origen": "libanesa 14",
            "latitudorigen": -34.580997249999996,
            "longitudorigen": -60.954963500000005,
            "destino": "Escuela Primaria N\u00b0 3",
            "direccion_destino": "Av. Rivadavia 393, Jun\u00edn, Provincia de Buenos Aires, Argentina",
            "latituddestino": -34.5866235,
            "longituddestino": -60.9502125,
            "distancia": 0.7619450768727867
        },
        {
            "origen": "libanesa 14",
            "latitudorigen": -34.580997249999996,
            "longitudorigen": -60.954963500000005,
            "destino": "Escuela De Educaci\u00f3n Primaria N\u00ba19 \"Florentino Ameghino\"",
            "direccion_destino": "Ameghino 829 ",
            "latituddestino": -34.5884805,
            "longituddestino": -60.9558307,
            "distancia": 0.8358791070685971
        },
        {
            "origen": "libanesa 14",
            "latitudorigen": -34.580997249999996,
            "longitudorigen": -60.954963500000005,
            "destino": "Escuela De Educaci\u00f3n Primaria N\u00ba18 \"Domingo Faustino Sarmiento\"",
            "direccion_destino": "Siria 428, Jun\u00edn, Provincia de Buenos Aires",
            "latituddestino": -34.576443,
            "longituddestino": -60.947321,
            "distancia": 0.8637208513141377
        },
        {
            "origen": "libanesa 14",
            "latitudorigen": -34.580997249999996,
            "longitudorigen": -60.954963500000005,
            "destino": "Escuela Normal Superior",
            "direccion_destino": "Almafuerte 308, Jun\u00edn, Provincia de Buenos Aires, Argentina",
            "latituddestino": -34.5897702,
            "longituddestino": -60.9535306,
            "distancia": 0.984288748961545
        },
        {
            "origen": "libanesa 14",
            "latitudorigen": -34.580997249999996,
            "longitudorigen": -60.954963500000005,
            "destino": "Escuela De Educaci\u00f3n Primaria N\u00ba40 \"Jos\u00e9 Hern\u00e1ndez\"",
            "direccion_destino": "Vuelta de Obligado 151-199, Jun\u00edn, Provincia de Buenos Aires",
            "latituddestino": -34.5720308,
            "longituddestino": -60.9599638,
            "distancia": 1.0971054278335062
        },
        {
            "origen": "libanesa 14",
            "latitudorigen": -34.580997249999996,
            "longitudorigen": -60.954963500000005,
            "destino": "Escuela De Educaci\u00f3n Primaria N\u00ba2 \"General Jos\u00e9 de San Mart\u00edn\"",
            "direccion_destino": "Leandro N. Alem 347, Jun\u00edn, Provincia de Buenos Aires, Argentina",
            "latituddestino": -34.5847605,
            "longituddestino": -60.9428617,
            "distancia": 1.1842828266051766
        },
        {
            "origen": "libanesa 14",
            "latitudorigen": -34.580997249999996,
            "longitudorigen": -60.954963500000005,
            "destino": "Centro De Formaci\u00f3n Profesional N\u00ba402",
            "direccion_destino": "Pringles 995, Jun\u00edn, Provincia de Buenos Aires",
            "latituddestino": -34.572408,
            "longituddestino": -60.9451005,
            "distancia": 1.3143792585239527
        },
        {
            "origen": "libanesa 14",
            "latitudorigen": -34.580997249999996,
            "longitudorigen": -60.954963500000005,
            "destino": "Escuela De Educaci\u00f3n Primaria N\u00ba21 \"Intendente De La Sota\"",
            "direccion_destino": "Arqu\u00edmedes 1280, Jun\u00edn, Provincia de Buenos Aires",
            "latituddestino": -34.5850574916956,
            "longituddestino": -60.9692737605012,
            "distancia": 1.385680217668364
        },
        {
            "origen": "libanesa 14",
            "latitudorigen": -34.580997249999996,
            "longitudorigen": -60.954963500000005,
            "destino": "Colegio Secundario San Jorge",
            "direccion_destino": "Almte. Brown 134, Jun\u00edn, Provincia de Buenos Aires",
            "latituddestino": -34.5935684,
            "longituddestino": -60.9538886,
            "distancia": 1.4013090779963295
        },
        {
            "origen": "libanesa 14",
            "latitudorigen": -34.580997249999996,
            "longitudorigen": -60.954963500000005,
            "destino": "Escuela De Educaci\u00f3n Primaria N\u00ba30 \"25 De Mayo\"",
            "direccion_destino": "Juan Jos\u00e9 Paso y Fleming , Jun\u00edn , Provincia de Buenos Aires",
            "latituddestino": -34.5742783,
            "longituddestino": -60.9418923,
            "distancia": 1.4107797865683367
        },
        {
            "origen": "libanesa 14",
            "latitudorigen": -34.580997249999996,
            "longitudorigen": -60.954963500000005,
            "destino": "Escuela De Educaci\u00f3n Primaria N\u00ba30 \"25 De Mayo\"",
            "direccion_destino": "Paso y Fleming, Jun\u00edn, Provincia de Buenos Aires",
            "latituddestino": -34.5742783,
            "longituddestino": -60.9418923,
            "distancia": 1.4107797865683367
        },
        {
            "origen": "libanesa 14",
            "latitudorigen": -34.580997249999996,
            "longitudorigen": -60.954963500000005,
            "destino": "Colegio La Santa Uni\u00f3n de los Sagrados Corazones",
            "direccion_destino": "Gral. Paz 90, Jun\u00edn, Provincia de Buenos Aires, Argentina",
            "latituddestino": -34.5909446,
            "longituddestino": -60.9452269,
            "distancia": 1.4205339005391076
        },
        {
            "origen": "libanesa 14",
            "latitudorigen": -34.580997249999996,
            "longitudorigen": -60.954963500000005,
            "destino": "Escuela De Educaci\u00f3n Est\u00e9tica",
            "direccion_destino": "Francia 95, Jun\u00edn, Provincia de Buenos Aires",
            "latituddestino": -34.5931479,
            "longituddestino": -60.9486304,
            "distancia": 1.470225095564415
        },
        {
            "origen": "libanesa 14",
            "latitudorigen": -34.580997249999996,
            "longitudorigen": -60.954963500000005,
            "destino": "Instituto del Profesorado Jun\u00edn",
            "direccion_destino": "Av. Arias 70, Jun\u00edn, Provincia de Buenos Aires",
            "latituddestino": -34.5926359,
            "longituddestino": -60.9447281,
            "distancia": 1.5977441539083121
        },
        {
            "origen": "libanesa 14",
            "latitudorigen": -34.580997249999996,
            "longitudorigen": -60.954963500000005,
            "destino": "Escuela Primaria N\u00ba41 \"Hip\u00f3lito Yrigoyen\"",
            "direccion_destino": "Irlanda y Berutti , Jun\u00edn, Provincia de Buenos Aires",
            "latituddestino": -34.574574,
            "longituddestino": -60.938994,
            "distancia": 1.6271894132665932
        },
        {
            "origen": "libanesa 14",
            "latitudorigen": -34.580997249999996,
            "longitudorigen": -60.954963500000005,
            "destino": "Escuela Primaria N\u00b0 1",
            "direccion_destino": "\u00c1lvarez Rodr\u00edguez 27, Jun\u00edn, Provincia de Buenos Aires",
            "latituddestino": -34.5942877,
            "longituddestino": -60.9469702,
            "distancia": 1.6490637585878603
        },
        {
            "origen": "libanesa 14",
            "latitudorigen": -34.580997249999996,
            "longitudorigen": -60.954963500000005,
            "destino": "Colegio Marianista de Jun\u00edn",
            "direccion_destino": "Carlos Tejedor 27, Jun\u00edn, Provincia de Buenos Aires",
            "latituddestino": -34.5903666,
            "longituddestino": -60.9378905,
            "distancia": 1.8783448046772468
        },
        {
            "origen": "libanesa 14",
            "latitudorigen": -34.580997249999996,
            "longitudorigen": -60.954963500000005,
            "destino": "Escuela De Educaci\u00f3n Primaria N\u00ba24 \"Justo Jos\u00e9 De Urquiza\"",
            "direccion_destino": "Ram\u00f3n Falc\u00f3n 136",
            "latituddestino": -34.5942208,
            "longituddestino": -60.9415926,
            "distancia": 1.9131761630672683
        },
        {
            "origen": "libanesa 14",
            "latitudorigen": -34.580997249999996,
            "longitudorigen": -60.954963500000005,
            "destino": "Escuela Primaria N\u00b022 Centenario",
            "direccion_destino": "Av. Arias 475",
            "latituddestino": -34.5894379,
            "longituddestino": -60.9364763,
            "distancia": 1.9352381519757644
        },
        {
            "origen": "libanesa 14",
            "latitudorigen": -34.580997249999996,
            "longitudorigen": -60.954963500000005,
            "destino": "Escuela Primaria N\u00b0 7 \"Ant\u00e1rtida Argentina\"",
            "direccion_destino": "Sadi Carnot 150-102, Jun\u00edn, Provincia de Buenos Aires",
            "latituddestino": -34.5984242,
            "longituddestino": -60.9514633,
            "distancia": 1.9641018200449016
        },
        {
            "origen": "libanesa 14",
            "latitudorigen": -34.580997249999996,
            "longitudorigen": -60.954963500000005,
            "destino": "Escuela Primaria N\u00b012 \"Juan Bautista Alberdi\"",
            "direccion_destino": "Pringles 203-247, Jun\u00edn, Provincia de Buenos Aires",
            "latituddestino": -34.582639,
            "longituddestino": -60.932718,
            "distancia": 2.0447132946596396
        },
        {
            "origen": "libanesa 14",
            "latitudorigen": -34.580997249999996,
            "longitudorigen": -60.954963500000005,
            "destino": "Jard\u00edn De Infantes N\u00ba909 \"Jos\u00e9 Hern\u00e1ndez\"",
            "direccion_destino": "Jos\u00e9 Hern\u00e1ndez 262, Jun\u00edn, Provincia de Buenos Aires",
            "latituddestino": -34.5978756,
            "longituddestino": -60.965548,
            "distancia": 2.11213710787261
        },
        {
            "origen": "libanesa 14",
            "latitudorigen": -34.580997249999996,
            "longitudorigen": -60.954963500000005,
            "destino": "Instituto Secundario Padre Respuela",
            "direccion_destino": "Av. Padre Respuela 195, Jun\u00edn, Provincia de Buenos Aires",
            "latituddestino": -34.6005476,
            "longituddestino": -60.9545324,
            "distancia": 2.1742608838857516
        },
        {
            "origen": "libanesa 14",
            "latitudorigen": -34.580997249999996,
            "longitudorigen": -60.954963500000005,
            "destino": "Escuela De Educaci\u00f3n Primaria N\u00ba49",
            "direccion_destino": "Democracia 1118, Jun\u00edn, Provincia de Buenos Aires",
            "latituddestino": -34.5683849,
            "longituddestino": -60.9358865,
            "distancia": 2.2399805805909994
        },
        {
            "origen": "libanesa 14",
            "latitudorigen": -34.580997249999996,
            "longitudorigen": -60.954963500000005,
            "destino": "Escuela de Educaci\u00f3n Secundaria N\u00ba 7 \"Mayor Alfredo J.L. Arrieta\"",
            "direccion_destino": "Int. Borchex 119, Junin, Provincia de Buenos Aires, Argentina",
            "latituddestino": -34.5991155,
            "longituddestino": -60.9396426,
            "distancia": 2.4547461072443784
        },
        {
            "origen": "libanesa 14",
            "latitudorigen": -34.580997249999996,
            "longitudorigen": -60.954963500000005,
            "destino": "E.E.S.T. N\u00ba 2 Patricias Argentinas",
            "direccion_destino": "Disc\u00e9polo 448, Jun\u00edn, Provincia de Buenos Aires",
            "latituddestino": -34.6015252,
            "longituddestino": -60.9429436,
            "distancia": 2.533952407745273
        },
        {
            "origen": "libanesa 14",
            "latitudorigen": -34.580997249999996,
            "longitudorigen": -60.954963500000005,
            "destino": "Dr. M. Lebensohn 1125",
            "direccion_destino": null,
            "latituddestino": -34.5829471,
            "longituddestino": -60.9227811,
            "distancia": 2.954219768097616
        },
        {
            "origen": "libanesa 14",
            "latitudorigen": -34.580997249999996,
            "longitudorigen": -60.954963500000005,
            "destino": "Escuela De Educaci\u00f3n Primaria N\u00ba35 \"Paula Albarracin\"",
            "direccion_destino": "RN7 Km 258, Jun\u00edn, Provincia de Buenos Aires",
            "latituddestino": -34.614428,
            "longituddestino": -60.9525351,
            "distancia": 3.7239743419099773
        }
    ]
}