{
    "calculo_temporal": [
        {
            "origen": "francia 1343",
            "latitudorigen": -33.89749945714286,
            "longitudorigen": -60.58472088571428,
            "destino": "Escuela Primaria N\u00b0 17",
            "direccion_destino": "Castelli 1579, Pergamino, Provincia de Buenos Aires, Argentina",
            "latituddestino": -33.8957858,
            "longituddestino": -60.5857257,
            "distancia": 0.21192059045430955
        },
        {
            "origen": "francia 1343",
            "latitudorigen": -33.89749945714286,
            "longitudorigen": -60.58472088571428,
            "destino": "Escuela de Educaci\u00f3n Secundaria N\u00ba 5 \"Ex Nacional\"",
            "direccion_destino": "Estrada 1225, Pergamino, Provincia de Buenos Aires",
            "latituddestino": -33.8981115,
            "longituddestino": -60.5803035,
            "distancia": 0.4133466245649306
        },
        {
            "origen": "francia 1343",
            "latitudorigen": -33.89749945714286,
            "longitudorigen": -60.58472088571428,
            "destino": "Escuela Primaria N\u00b016",
            "direccion_destino": "Florida 1111, Pergamino, Provincia de Buenos Aires",
            "latituddestino": -33.8950982,
            "longituddestino": -60.5799053,
            "distancia": 0.5185005753838341
        },
        {
            "origen": "francia 1343",
            "latitudorigen": -33.89749945714286,
            "longitudorigen": -60.58472088571428,
            "destino": "Escuela Normal Superior Joaquin V. Gonzalez",
            "direccion_destino": "Blvd. Col\u00f3n 725, Pergamino, Provincia de Buenos Aires, Argentina",
            "latituddestino": -33.8929668,
            "longituddestino": -60.5815007,
            "distancia": 0.5851186731795792
        },
        {
            "origen": "francia 1343",
            "latitudorigen": -33.89749945714286,
            "longitudorigen": -60.58472088571428,
            "destino": "Escuela de Educaci\u00f3n Secundaria Tecnica N\u00b0 2",
            "direccion_destino": "Florida 545, Pergamino, Provincia de Buenos Aires",
            "latituddestino": -33.890985,
            "longituddestino": -60.582515,
            "distancia": 0.7524452375412141
        },
        {
            "origen": "francia 1343",
            "latitudorigen": -33.89749945714286,
            "longitudorigen": -60.58472088571428,
            "destino": "Colegio Nuestra Sra. del Huerto",
            "direccion_destino": "11 de Septiembre 646, Pergamino, Provincia de Buenos Aires",
            "latituddestino": -33.8980204,
            "longituddestino": -60.5754345,
            "distancia": 0.8590487680430025
        },
        {
            "origen": "francia 1343",
            "latitudorigen": -33.89749945714286,
            "longitudorigen": -60.58472088571428,
            "destino": "E.E.S.T N1 \"Bme Mitre\"",
            "direccion_destino": "Av. de Mayo 1425, Pergamino, Provincia de Buenos Aires, Argentina",
            "latituddestino": -33.8897056,
            "longituddestino": -60.5814208,
            "distancia": 0.918609119675643
        },
        {
            "origen": "francia 1343",
            "latitudorigen": -33.89749945714286,
            "longitudorigen": -60.58472088571428,
            "destino": "Escuela Primaria N\u00ba 22 \"Domingo Faustino Sarmiento\"",
            "direccion_destino": "Av. de Mayo, 1165, Pergamino, Buenos Aires, Argentina",
            "latituddestino": -33.8904988,
            "longituddestino": -60.5783504,
            "distancia": 0.975553245932235
        },
        {
            "origen": "francia 1343",
            "latitudorigen": -33.89749945714286,
            "longitudorigen": -60.58472088571428,
            "destino": "Escuela primaria 64",
            "direccion_destino": "Monteagudo 2058, Pergamino, Provincia de Buenos Aires, Argentina",
            "latituddestino": -33.9062283,
            "longituddestino": -60.5861707,
            "distancia": 0.9797840048020285
        },
        {
            "origen": "francia 1343",
            "latitudorigen": -33.89749945714286,
            "longitudorigen": -60.58472088571428,
            "destino": "Escuela Primaria N\u00b01 \"Pte. Julio A. Roca\"",
            "direccion_destino": "Merced 618, Pergamino, Provincia de Buenos Aires",
            "latituddestino": -33.8947051,
            "longituddestino": -60.5742105,
            "distancia": 1.0186294212814775
        },
        {
            "origen": "francia 1343",
            "latitudorigen": -33.89749945714286,
            "longitudorigen": -60.58472088571428,
            "destino": "Escuela especial 503",
            "direccion_destino": "Bartolom\u00e9 Mitre 600, Pergamino, Provincia de Buenos Aires, Argentina",
            "latituddestino": -33.8945864,
            "longituddestino": -60.5739833,
            "distancia": 1.0426450586210103
        },
        {
            "origen": "francia 1343",
            "latitudorigen": -33.89749945714286,
            "longitudorigen": -60.58472088571428,
            "destino": "Escuela de Arte \"Emilio Pettoruti\"",
            "direccion_destino": "San Nicol\u00e1s 1892, Pergamino, Provincia de Buenos Aires, Argentina",
            "latituddestino": -33.9064941,
            "longituddestino": -60.5789413,
            "distancia": 1.1335080040354908
        },
        {
            "origen": "francia 1343",
            "latitudorigen": -33.89749945714286,
            "longitudorigen": -60.58472088571428,
            "destino": "EPB N\u00b0 2",
            "direccion_destino": "Florida 425, Pergamino, Provincia de Buenos Aires",
            "latituddestino": -33.8981062,
            "longituddestino": -60.5723621,
            "distancia": 1.1426557841182494
        },
        {
            "origen": "francia 1343",
            "latitudorigen": -33.89749945714286,
            "longitudorigen": -60.58472088571428,
            "destino": "Escuela Primaria N\u00b042",
            "direccion_destino": "Av. Barrancas del Paran\u00e1 & Sol\u00eds, Pergamino, Provincia de Buenos Aires, Argentina",
            "latituddestino": -33.9051966,
            "longituddestino": -60.5938482,
            "distancia": 1.2008897806518788
        },
        {
            "origen": "francia 1343",
            "latitudorigen": -33.89749945714286,
            "longitudorigen": -60.58472088571428,
            "destino": "Escuela Primaria N\u00b053",
            "direccion_destino": "Balboa 586, Pergamino, Provincia de Buenos Aires, Argentina",
            "latituddestino": -33.9077478,
            "longituddestino": -60.5794365,
            "distancia": 1.2395397187293606
        },
        {
            "origen": "francia 1343",
            "latitudorigen": -33.89749945714286,
            "longitudorigen": -60.58472088571428,
            "destino": "Secundaria N\u00b014 (ex ESB 15)",
            "direccion_destino": "Magallanes 587, Pergamino, Provincia de Buenos Aires, Argentina",
            "latituddestino": -33.9085372,
            "longituddestino": -60.5799537,
            "distancia": 1.3038167491125916
        },
        {
            "origen": "francia 1343",
            "latitudorigen": -33.89749945714286,
            "longitudorigen": -60.58472088571428,
            "destino": "Escuela 10",
            "direccion_destino": "Blvd. Ameghino 91, Pergamino, Provincia de Buenos Aires",
            "latituddestino": -33.8856755,
            "longituddestino": -60.5776714,
            "distancia": 1.4669694649486993
        },
        {
            "origen": "francia 1343",
            "latitudorigen": -33.89749945714286,
            "longitudorigen": -60.58472088571428,
            "destino": "Escuela 502",
            "direccion_destino": "Av. Pres. Juan Domingo Per\u00f3n 1550, Pergamino, Provincia de Buenos Aires, Argentina",
            "latituddestino": -33.9055223,
            "longituddestino": -60.5702683,
            "distancia": 1.6046829092670687
        },
        {
            "origen": "francia 1343",
            "latitudorigen": -33.89749945714286,
            "longitudorigen": -60.58472088571428,
            "destino": "ESCUELA PRIMARIA N\u00b0 6 \" JUAN BAUTISTA ALBERDI\"",
            "direccion_destino": "Zeballos Jos\u00e9 649, Pergamino, Provincia de Buenos Aires, Argentina",
            "latituddestino": -33.8976076,
            "longituddestino": -60.5665618,
            "distancia": 1.6760528515733588
        },
        {
            "origen": "francia 1343",
            "latitudorigen": -33.89749945714286,
            "longitudorigen": -60.58472088571428,
            "destino": "Escuela Primaria N\u00b018",
            "direccion_destino": "Golondrinas y Calandrias, Pergamino, Provincia de Buenos Aires, Argentina",
            "latituddestino": -33.8842201,
            "longituddestino": -60.5946081,
            "distancia": 1.7358636820191677
        },
        {
            "origen": "francia 1343",
            "latitudorigen": -33.89749945714286,
            "longitudorigen": -60.58472088571428,
            "destino": "EGB N\u00b04",
            "direccion_destino": "Espa\u00f1a 649, Pergamino, Provincia de Buenos Aires",
            "latituddestino": -33.8878672,
            "longituddestino": -60.5698937,
            "distancia": 1.7378562826585569
        },
        {
            "origen": "francia 1343",
            "latitudorigen": -33.89749945714286,
            "longitudorigen": -60.58472088571428,
            "destino": "UNNOBA",
            "direccion_destino": "Monteagudo 2772, Pergamino, Provincia de Buenos Aires, Argentina",
            "latituddestino": -33.913309447379454,
            "longituddestino": -60.58938228481149,
            "distancia": 1.8098624378664632
        },
        {
            "origen": "francia 1343",
            "latitudorigen": -33.89749945714286,
            "longitudorigen": -60.58472088571428,
            "destino": "Colegio Parroquial Santa Julia",
            "direccion_destino": "Alberdi 2965, Pergamino, Provincia de Buenos Aires, Argentina",
            "latituddestino": -33.9125346,
            "longituddestino": -60.59651,
            "distancia": 1.9946817505732022
        },
        {
            "origen": "francia 1343",
            "latitudorigen": -33.89749945714286,
            "longitudorigen": -60.58472088571428,
            "destino": "ESB N\u00b018",
            "direccion_destino": "Colombia 760, Pergamino, Provincia de Buenos Aires, Argentina",
            "latituddestino": -33.9008781,
            "longituddestino": -60.5584333,
            "distancia": 2.4551054779187154
        },
        {
            "origen": "francia 1343",
            "latitudorigen": -33.89749945714286,
            "longitudorigen": -60.58472088571428,
            "destino": "Colegio San Pablo",
            "direccion_destino": "Gualberto \u00c1lvarez 401, Pergamino, Provincia de Buenos Aires, Argentina",
            "latituddestino": -33.91987,
            "longituddestino": -60.584343,
            "distancia": 2.4877387405126865
        },
        {
            "origen": "francia 1343",
            "latitudorigen": -33.89749945714286,
            "longitudorigen": -60.58472088571428,
            "destino": "Escuela Primaria N\u00b062",
            "direccion_destino": "Zeballos Jos\u00e9 941, Pergamino, Provincia de Buenos Aires, Argentina",
            "latituddestino": -33.9007146,
            "longituddestino": -60.5580217,
            "distancia": 2.4899802125630637
        },
        {
            "origen": "francia 1343",
            "latitudorigen": -33.89749945714286,
            "longitudorigen": -60.58472088571428,
            "destino": "Jardin De Infante N 923",
            "direccion_destino": "1298 Matheu Pergamino, Provincia de Buenos Aires",
            "latituddestino": -33.8772598,
            "longituddestino": -60.5724489,
            "distancia": 2.5195611887581952
        },
        {
            "origen": "francia 1343",
            "latitudorigen": -33.89749945714286,
            "longitudorigen": -60.58472088571428,
            "destino": "Escuela Primaria N\u00b0 41",
            "direccion_destino": "Bv. Almafuerte & Barbaz\u00e1n, Pergamino, Provincia de Buenos Aires, Argentina",
            "latituddestino": -33.8741189,
            "longituddestino": -60.5789895,
            "distancia": 2.653088002753501
        },
        {
            "origen": "francia 1343",
            "latitudorigen": -33.89749945714286,
            "longitudorigen": -60.58472088571428,
            "destino": "Escuela Primaria N\u00b048",
            "direccion_destino": "Sebasti\u00e1n El Cano & Av. Antonio Rivero, Pergamino, Provincia de Buenos Aires, Argentina",
            "latituddestino": -33.9207707,
            "longituddestino": -60.5942574,
            "distancia": 2.733208668723839
        },
        {
            "origen": "francia 1343",
            "latitudorigen": -33.89749945714286,
            "longitudorigen": -60.58472088571428,
            "destino": "Escuela Primaria N\u00b08",
            "direccion_destino": "Av. Scalabrini 1049, Pergamino, Provincia de Buenos Aires",
            "latituddestino": -33.8832444,
            "longituddestino": -60.5597095,
            "distancia": 2.800419997381877
        },
        {
            "origen": "francia 1343",
            "latitudorigen": -33.89749945714286,
            "longitudorigen": -60.58472088571428,
            "destino": "Jard\u00edn de Infantes 917",
            "direccion_destino": "Dr. Schumacher 1418, Pergamino, Provincia de Buenos Aires, Argentina",
            "latituddestino": -33.9096493,
            "longituddestino": -60.5549018,
            "distancia": 3.0657193078108684
        },
        {
            "origen": "francia 1343",
            "latitudorigen": -33.89749945714286,
            "longitudorigen": -60.58472088571428,
            "destino": "Escuela Primaria N\u00b0 5",
            "direccion_destino": "Dr. Schumacher 1490, Pergamino, Provincia de Buenos Aires, Argentina",
            "latituddestino": -33.9098183,
            "longituddestino": -60.5543633,
            "distancia": 3.1186140969701692
        },
        {
            "origen": "francia 1343",
            "latitudorigen": -33.89749945714286,
            "longitudorigen": -60.58472088571428,
            "destino": "Instituto Superior de Formaci\u00f3n Docente y T\u00e9cnica N\u00ba 5 \"Regi\u00f3n de la Norpampa\"",
            "direccion_destino": "Scalabrini Ortiz 472, Pergamino, Provincia de Buenos Aires, Argentina",
            "latituddestino": -33.9002828,
            "longituddestino": -60.5487357,
            "distancia": 3.3356232451063854
        },
        {
            "origen": "francia 1343",
            "latitudorigen": -33.89749945714286,
            "longitudorigen": -60.58472088571428,
            "destino": "Escuela Primaria N\u00b050",
            "direccion_destino": "Gral. Mosconi 1920, Pergamino, Provincia de Buenos Aires, Argentina",
            "latituddestino": -33.9013418,
            "longituddestino": -60.5485079,
            "distancia": 3.369435739241044
        },
        {
            "origen": "francia 1343",
            "latitudorigen": -33.89749945714286,
            "longitudorigen": -60.58472088571428,
            "destino": "Escuela Media n\u00b0 2",
            "direccion_destino": "Florida 545, Pergamino, Provincia de Buenos Aires",
            "latituddestino": -33.9019678,
            "longituddestino": -60.5484361,
            "distancia": 3.3855103287314217
        },
        {
            "origen": "francia 1343",
            "latitudorigen": -33.89749945714286,
            "longitudorigen": -60.58472088571428,
            "destino": "Escuela Artes Y Oficios Monse\u00f1or Scalabrini",
            "direccion_destino": "Av. Champagnat 182, Pergamino, Provincia de Buenos Aires, Argentina",
            "latituddestino": -33.875668,
            "longituddestino": -60.5586285,
            "distancia": 3.419652376939442
        },
        {
            "origen": "francia 1343",
            "latitudorigen": -33.89749945714286,
            "longitudorigen": -60.58472088571428,
            "destino": "Colegio San Jose Hermanos Maristas",
            "direccion_destino": "2511 J. M. de Rosas Pergamino, Provincia de Buenos Aires",
            "latituddestino": -33.8671401,
            "longituddestino": -60.5688517,
            "distancia": 3.679959216567867
        },
        {
            "origen": "francia 1343",
            "latitudorigen": -33.89749945714286,
            "longitudorigen": -60.58472088571428,
            "destino": "Escuela Primaria N\u00b0 11 \"Juan Jos\u00e9 Paso\"",
            "direccion_destino": "C. 106, Pergamino, Provincia de Buenos Aires, Argentina",
            "latituddestino": -33.8639491,
            "longituddestino": -60.5701995,
            "distancia": 3.964171225402434
        },
        {
            "origen": "francia 1343",
            "latitudorigen": -33.89749945714286,
            "longitudorigen": -60.58472088571428,
            "destino": "Escuela Primaria N\u00b052",
            "direccion_destino": "Mansilla & Larreta, Pergamino, Provincia de Buenos Aires, Argentina",
            "latituddestino": -33.8918342,
            "longituddestino": -60.5396361,
            "distancia": 4.208694840246386
        }
    ]
}