{
    "calculo_temporal": [
        {
            "origen": "francia 1535",
            "latitudorigen": -33.8990141,
            "longitudorigen": -60.5855334,
            "destino": "Escuela Primaria N\u00b0 17",
            "direccion_destino": "Castelli 1579, Pergamino, Provincia de Buenos Aires, Argentina",
            "latituddestino": -33.8957858,
            "longituddestino": -60.5857257,
            "distancia": 0.35940957854022315
        },
        {
            "origen": "francia 1535",
            "latitudorigen": -33.8990141,
            "longitudorigen": -60.5855334,
            "destino": "Escuela de Educaci\u00f3n Secundaria N\u00ba 5 \"Ex Nacional\"",
            "direccion_destino": "Estrada 1225, Pergamino, Provincia de Buenos Aires",
            "latituddestino": -33.8981115,
            "longituddestino": -60.5803035,
            "distancia": 0.49301661588420154
        },
        {
            "origen": "francia 1535",
            "latitudorigen": -33.8990141,
            "longitudorigen": -60.5855334,
            "destino": "Escuela Primaria N\u00b016",
            "direccion_destino": "Florida 1111, Pergamino, Provincia de Buenos Aires",
            "latituddestino": -33.8950982,
            "longituddestino": -60.5799053,
            "distancia": 0.6778129965529747
        },
        {
            "origen": "francia 1535",
            "latitudorigen": -33.8990141,
            "longitudorigen": -60.5855334,
            "destino": "Escuela Normal Superior Joaquin V. Gonzalez",
            "direccion_destino": "Blvd. Col\u00f3n 725, Pergamino, Provincia de Buenos Aires, Argentina",
            "latituddestino": -33.8929668,
            "longituddestino": -60.5815007,
            "distancia": 0.7685709951754941
        },
        {
            "origen": "francia 1535",
            "latitudorigen": -33.8990141,
            "longitudorigen": -60.5855334,
            "destino": "Escuela primaria 64",
            "direccion_destino": "Monteagudo 2058, Pergamino, Provincia de Buenos Aires, Argentina",
            "latituddestino": -33.9062283,
            "longituddestino": -60.5861707,
            "distancia": 0.8043368999830571
        },
        {
            "origen": "francia 1535",
            "latitudorigen": -33.8990141,
            "longitudorigen": -60.5855334,
            "destino": "Escuela de Educaci\u00f3n Secundaria Tecnica N\u00b0 2",
            "direccion_destino": "Florida 545, Pergamino, Provincia de Buenos Aires",
            "latituddestino": -33.890985,
            "longituddestino": -60.582515,
            "distancia": 0.9352541226362469
        },
        {
            "origen": "francia 1535",
            "latitudorigen": -33.8990141,
            "longitudorigen": -60.5855334,
            "destino": "Colegio Nuestra Sra. del Huerto",
            "direccion_destino": "11 de Septiembre 646, Pergamino, Provincia de Buenos Aires",
            "latituddestino": -33.8980204,
            "longituddestino": -60.5754345,
            "distancia": 0.9386033672396346
        },
        {
            "origen": "francia 1535",
            "latitudorigen": -33.8990141,
            "longitudorigen": -60.5855334,
            "destino": "Escuela Primaria N\u00b042",
            "direccion_destino": "Av. Barrancas del Paran\u00e1 & Sol\u00eds, Pergamino, Provincia de Buenos Aires, Argentina",
            "latituddestino": -33.9051966,
            "longituddestino": -60.5938482,
            "distancia": 1.0302815831654453
        },
        {
            "origen": "francia 1535",
            "latitudorigen": -33.8990141,
            "longitudorigen": -60.5855334,
            "destino": "Escuela de Arte \"Emilio Pettoruti\"",
            "direccion_destino": "San Nicol\u00e1s 1892, Pergamino, Provincia de Buenos Aires, Argentina",
            "latituddestino": -33.9064941,
            "longituddestino": -60.5789413,
            "distancia": 1.0304973124092855
        },
        {
            "origen": "francia 1535",
            "latitudorigen": -33.8990141,
            "longitudorigen": -60.5855334,
            "destino": "E.E.S.T N1 \"Bme Mitre\"",
            "direccion_destino": "Av. de Mayo 1425, Pergamino, Provincia de Buenos Aires, Argentina",
            "latituddestino": -33.8897056,
            "longituddestino": -60.5814208,
            "distancia": 1.1024685424421479
        },
        {
            "origen": "francia 1535",
            "latitudorigen": -33.8990141,
            "longitudorigen": -60.5855334,
            "destino": "Escuela Primaria N\u00b053",
            "direccion_destino": "Balboa 586, Pergamino, Provincia de Buenos Aires, Argentina",
            "latituddestino": -33.9077478,
            "longituddestino": -60.5794365,
            "distancia": 1.1223774069962207
        },
        {
            "origen": "francia 1535",
            "latitudorigen": -33.8990141,
            "longitudorigen": -60.5855334,
            "destino": "Escuela Primaria N\u00b01 \"Pte. Julio A. Roca\"",
            "direccion_destino": "Merced 618, Pergamino, Provincia de Buenos Aires",
            "latituddestino": -33.8947051,
            "longituddestino": -60.5742105,
            "distancia": 1.1496686059272445
        },
        {
            "origen": "francia 1535",
            "latitudorigen": -33.8990141,
            "longitudorigen": -60.5855334,
            "destino": "Escuela Primaria N\u00ba 22 \"Domingo Faustino Sarmiento\"",
            "direccion_destino": "Av. de Mayo, 1165, Pergamino, Buenos Aires, Argentina",
            "latituddestino": -33.8904988,
            "longituddestino": -60.5783504,
            "distancia": 1.1558935317340102
        },
        {
            "origen": "francia 1535",
            "latitudorigen": -33.8990141,
            "longitudorigen": -60.5855334,
            "destino": "Escuela especial 503",
            "direccion_destino": "Bartolom\u00e9 Mitre 600, Pergamino, Provincia de Buenos Aires, Argentina",
            "latituddestino": -33.8945864,
            "longituddestino": -60.5739833,
            "distancia": 1.1742364684119295
        },
        {
            "origen": "francia 1535",
            "latitudorigen": -33.8990141,
            "longitudorigen": -60.5855334,
            "destino": "Secundaria N\u00b014 (ex ESB 15)",
            "direccion_destino": "Magallanes 587, Pergamino, Provincia de Buenos Aires, Argentina",
            "latituddestino": -33.9085372,
            "longituddestino": -60.5799537,
            "distancia": 1.1774909470577928
        },
        {
            "origen": "francia 1535",
            "latitudorigen": -33.8990141,
            "longitudorigen": -60.5855334,
            "destino": "EPB N\u00b0 2",
            "direccion_destino": "Florida 425, Pergamino, Provincia de Buenos Aires",
            "latituddestino": -33.8981062,
            "longituddestino": -60.5723621,
            "distancia": 1.2198277395186057
        },
        {
            "origen": "francia 1535",
            "latitudorigen": -33.8990141,
            "longitudorigen": -60.5855334,
            "destino": "Escuela 502",
            "direccion_destino": "Av. Pres. Juan Domingo Per\u00f3n 1550, Pergamino, Provincia de Buenos Aires, Argentina",
            "latituddestino": -33.9055223,
            "longituddestino": -60.5702683,
            "distancia": 1.5838278969843524
        },
        {
            "origen": "francia 1535",
            "latitudorigen": -33.8990141,
            "longitudorigen": -60.5855334,
            "destino": "UNNOBA",
            "direccion_destino": "Monteagudo 2772, Pergamino, Provincia de Buenos Aires, Argentina",
            "latituddestino": -33.913309447379454,
            "longituddestino": -60.58938228481149,
            "distancia": 1.6287748511937847
        },
        {
            "origen": "francia 1535",
            "latitudorigen": -33.8990141,
            "longitudorigen": -60.5855334,
            "destino": "Escuela 10",
            "direccion_destino": "Blvd. Ameghino 91, Pergamino, Provincia de Buenos Aires",
            "latituddestino": -33.8856755,
            "longituddestino": -60.5776714,
            "distancia": 1.6511955891359664
        },
        {
            "origen": "francia 1535",
            "latitudorigen": -33.8990141,
            "longitudorigen": -60.5855334,
            "destino": "ESCUELA PRIMARIA N\u00b0 6 \" JUAN BAUTISTA ALBERDI\"",
            "direccion_destino": "Zeballos Jos\u00e9 649, Pergamino, Provincia de Buenos Aires, Argentina",
            "latituddestino": -33.8976076,
            "longituddestino": -60.5665618,
            "distancia": 1.757956592286462
        },
        {
            "origen": "francia 1535",
            "latitudorigen": -33.8990141,
            "longitudorigen": -60.5855334,
            "destino": "Colegio Parroquial Santa Julia",
            "direccion_destino": "Alberdi 2965, Pergamino, Provincia de Buenos Aires, Argentina",
            "latituddestino": -33.9125346,
            "longituddestino": -60.59651,
            "distancia": 1.8128473447047866
        },
        {
            "origen": "francia 1535",
            "latitudorigen": -33.8990141,
            "longitudorigen": -60.5855334,
            "destino": "Escuela Primaria N\u00b018",
            "direccion_destino": "Golondrinas y Calandrias, Pergamino, Provincia de Buenos Aires, Argentina",
            "latituddestino": -33.8842201,
            "longituddestino": -60.5946081,
            "distancia": 1.8459934239239966
        },
        {
            "origen": "francia 1535",
            "latitudorigen": -33.8990141,
            "longitudorigen": -60.5855334,
            "destino": "EGB N\u00b04",
            "direccion_destino": "Espa\u00f1a 649, Pergamino, Provincia de Buenos Aires",
            "latituddestino": -33.8878672,
            "longituddestino": -60.5698937,
            "distancia": 1.9026689588706662
        },
        {
            "origen": "francia 1535",
            "latitudorigen": -33.8990141,
            "longitudorigen": -60.5855334,
            "destino": "Colegio San Pablo",
            "direccion_destino": "Gualberto \u00c1lvarez 401, Pergamino, Provincia de Buenos Aires, Argentina",
            "latituddestino": -33.91987,
            "longituddestino": -60.584343,
            "distancia": 2.3216738841721347
        },
        {
            "origen": "francia 1535",
            "latitudorigen": -33.8990141,
            "longitudorigen": -60.5855334,
            "destino": "ESB N\u00b018",
            "direccion_destino": "Colombia 760, Pergamino, Provincia de Buenos Aires, Argentina",
            "latituddestino": -33.9008781,
            "longituddestino": -60.5584333,
            "distancia": 2.5097320623392414
        },
        {
            "origen": "francia 1535",
            "latitudorigen": -33.8990141,
            "longitudorigen": -60.5855334,
            "destino": "Escuela Primaria N\u00b062",
            "direccion_destino": "Zeballos Jos\u00e9 941, Pergamino, Provincia de Buenos Aires, Argentina",
            "latituddestino": -33.9007146,
            "longituddestino": -60.5580217,
            "distancia": 2.546179945558632
        },
        {
            "origen": "francia 1535",
            "latitudorigen": -33.8990141,
            "longitudorigen": -60.5855334,
            "destino": "Escuela Primaria N\u00b048",
            "direccion_destino": "Sebasti\u00e1n El Cano & Av. Antonio Rivero, Pergamino, Provincia de Buenos Aires, Argentina",
            "latituddestino": -33.9207707,
            "longituddestino": -60.5942574,
            "distancia": 2.5496669392700184
        },
        {
            "origen": "francia 1535",
            "latitudorigen": -33.8990141,
            "longitudorigen": -60.5855334,
            "destino": "Jardin De Infante N 923",
            "direccion_destino": "1298 Matheu Pergamino, Provincia de Buenos Aires",
            "latituddestino": -33.8772598,
            "longituddestino": -60.5724489,
            "distancia": 2.703729368305661
        },
        {
            "origen": "francia 1535",
            "latitudorigen": -33.8990141,
            "longitudorigen": -60.5855334,
            "destino": "Escuela Primaria N\u00b0 41",
            "direccion_destino": "Bv. Almafuerte & Barbaz\u00e1n, Pergamino, Provincia de Buenos Aires, Argentina",
            "latituddestino": -33.8741189,
            "longituddestino": -60.5789895,
            "distancia": 2.833362487689296
        },
        {
            "origen": "francia 1535",
            "latitudorigen": -33.8990141,
            "longitudorigen": -60.5855334,
            "destino": "Escuela Primaria N\u00b08",
            "direccion_destino": "Av. Scalabrini 1049, Pergamino, Provincia de Buenos Aires",
            "latituddestino": -33.8832444,
            "longituddestino": -60.5597095,
            "distancia": 2.959130664907785
        },
        {
            "origen": "francia 1535",
            "latitudorigen": -33.8990141,
            "longitudorigen": -60.5855334,
            "destino": "Jard\u00edn de Infantes 917",
            "direccion_destino": "Dr. Schumacher 1418, Pergamino, Provincia de Buenos Aires, Argentina",
            "latituddestino": -33.9096493,
            "longituddestino": -60.5549018,
            "distancia": 3.064332035961587
        },
        {
            "origen": "francia 1535",
            "latitudorigen": -33.8990141,
            "longitudorigen": -60.5855334,
            "destino": "Escuela Primaria N\u00b0 5",
            "direccion_destino": "Dr. Schumacher 1490, Pergamino, Provincia de Buenos Aires, Argentina",
            "latituddestino": -33.9098183,
            "longituddestino": -60.5543633,
            "distancia": 3.117429609855048
        },
        {
            "origen": "francia 1535",
            "latitudorigen": -33.8990141,
            "longitudorigen": -60.5855334,
            "destino": "Instituto Superior de Formaci\u00f3n Docente y T\u00e9cnica N\u00ba 5 \"Regi\u00f3n de la Norpampa\"",
            "direccion_destino": "Scalabrini Ortiz 472, Pergamino, Provincia de Buenos Aires, Argentina",
            "latituddestino": -33.9002828,
            "longituddestino": -60.5487357,
            "distancia": 3.399123240058376
        },
        {
            "origen": "francia 1535",
            "latitudorigen": -33.8990141,
            "longitudorigen": -60.5855334,
            "destino": "Escuela Primaria N\u00b050",
            "direccion_destino": "Gral. Mosconi 1920, Pergamino, Provincia de Buenos Aires, Argentina",
            "latituddestino": -33.9013418,
            "longituddestino": -60.5485079,
            "distancia": 3.4269860002879113
        },
        {
            "origen": "francia 1535",
            "latitudorigen": -33.8990141,
            "longitudorigen": -60.5855334,
            "destino": "Escuela Media n\u00b0 2",
            "direccion_destino": "Florida 545, Pergamino, Provincia de Buenos Aires",
            "latituddestino": -33.9019678,
            "longituddestino": -60.5484361,
            "distancia": 3.43952881315967
        },
        {
            "origen": "francia 1535",
            "latitudorigen": -33.8990141,
            "longitudorigen": -60.5855334,
            "destino": "Escuela Artes Y Oficios Monse\u00f1or Scalabrini",
            "direccion_destino": "Av. Champagnat 182, Pergamino, Provincia de Buenos Aires, Argentina",
            "latituddestino": -33.875668,
            "longituddestino": -60.5586285,
            "distancia": 3.5926160689148365
        },
        {
            "origen": "francia 1535",
            "latitudorigen": -33.8990141,
            "longitudorigen": -60.5855334,
            "destino": "Colegio San Jose Hermanos Maristas",
            "direccion_destino": "2511 J. M. de Rosas Pergamino, Provincia de Buenos Aires",
            "latituddestino": -33.8671401,
            "longituddestino": -60.5688517,
            "distancia": 3.8643131939603435
        },
        {
            "origen": "francia 1535",
            "latitudorigen": -33.8990141,
            "longitudorigen": -60.5855334,
            "destino": "Escuela Primaria N\u00b0 11 \"Juan Jos\u00e9 Paso\"",
            "direccion_destino": "C. 106, Pergamino, Provincia de Buenos Aires, Argentina",
            "latituddestino": -33.8639491,
            "longituddestino": -60.5701995,
            "distancia": 4.148052512265256
        },
        {
            "origen": "francia 1535",
            "latitudorigen": -33.8990141,
            "longitudorigen": -60.5855334,
            "destino": "Escuela Primaria N\u00b052",
            "direccion_destino": "Mansilla & Larreta, Pergamino, Provincia de Buenos Aires, Argentina",
            "latituddestino": -33.8918342,
            "longituddestino": -60.5396361,
            "distancia": 4.310814449955142
        }
    ]
}